,City,Cloudiness,Country,Date,Humidity,Lat,Lng,Max Temp,Wind Speed
0,Dikson,100,RU,1563156132,94,73.51,80.55,42.21,14.61
1,Mar del Plata,41,AR,1563156134,76,-46.43,-67.52,38.97,12.82
2,Cabo San Lucas,20,MX,1563155864,66,22.89,-109.91,96.8,21.92
3,Rizon,0,GR,1563156137,63,40.73,22.14,66.0,10.29
4,Bluff,100,AU,1563156139,34,-23.58,149.07,63.09,3.38
5,Pevek,100,RU,1563156140,97,69.7,170.27,33.93,15.99
6,Kuytun,100,RU,1563156142,96,54.34,101.51,57.33,6.93
7,Hermanus,0,ZA,1563156144,87,-34.42,19.24,52.0,3.0
8,Kedrovyy,40,RU,1563156145,82,56.17,91.82,57.2,6.71
9,Vaini,40,IN,1563156147,100,15.34,74.49,69.8,4.7
10,Albany,1,US,1563156004,77,42.65,-73.75,75.2,5.82
11,Cape Town,75,ZA,1563155882,93,-33.93,18.42,54.0,8.05
12,Komsomolskiy,100,RU,1563156152,93,67.55,63.78,48.33,15.68
13,Punta Arenas,90,CL,1563156154,93,-53.16,-70.91,35.6,5.82
14,Torbay,90,CA,1563156155,100,47.66,-52.73,51.01,10.29
15,Chuy,7,UY,1563156157,89,-33.69,-53.46,46.17,4.18
16,Rome,0,IT,1563156020,60,41.89,12.48,75.99,6.93
17,Genhe,0,CN,1563156160,40,50.78,121.52,76.41,5.79
18,Kommunisticheskiy,44,RU,1563156162,68,61.68,64.48,74.61,6.96
19,Busselton,0,AU,1563156164,49,-33.64,115.35,57.99,20.42
20,Hobart,75,AU,1563156004,57,-42.88,147.33,53.01,16.11
21,Paamiut,0,GL,1563156167,89,61.99,-49.67,42.21,2.93
22,Kedougou,3,SN,1563156169,95,12.56,-12.19,74.25,7.09
23,Mataura,53,NZ,1563156170,80,-46.19,168.86,46.99,3.0
24,Marawi,100,PH,1563156172,70,8.0,124.29,84.0,3.0
25,Ushuaia,0,AR,1563156174,94,-54.81,-68.31,37.4,3.36
26,Naze,100,NG,1563156175,93,5.43,7.07,74.25,5.17
27,Pangkalanbuun,74,ID,1563156177,61,-2.68,111.62,83.25,4.88
28,Bullhead City,1,US,1563156060,8,35.15,-114.57,114.8,11.41
29,Jamestown,90,AU,1563156180,77,-33.21,138.6,52.29,7.09
30,Vardo,1,US,1563156182,61,39.62,-77.74,84.2,4.32
31,Pisco,0,PE,1563156184,77,-13.71,-76.2,60.8,10.29
32,Benguela,42,AO,1563156185,86,-12.58,13.4,68.49,4.68
33,Leshukonskoye,1,RU,1563156187,58,64.9,45.76,59.49,1.32
34,Magadan,97,RU,1563156189,94,59.56,150.8,49.41,14.0
35,Lubumbashi,0,CD,1563156190,60,-11.66,27.48,52.65,7.16
36,Bushehr,0,IR,1563156192,66,28.97,50.84,86.0,6.93
37,Rikitea,64,PF,1563156194,86,-23.12,-134.97,74.61,13.65
38,Hilo,75,US,1563156195,58,19.71,-155.08,84.2,11.41
39,Morristown,1,US,1563156197,83,36.21,-83.29,77.0,3.36
40,Barrow,99,AR,1563156199,85,-38.31,-60.23,45.09,9.6
41,Port Blair,75,IN,1563156201,88,11.67,92.75,80.6,8.05
42,Isalnita,10,RO,1563156202,93,44.4,23.73,59.0,3.36
43,Kapaa,75,US,1563156204,70,22.08,-159.32,84.2,12.75
44,Qaanaaq,100,GL,1563156206,76,77.48,-69.36,42.93,9.4
45,Beloha,28,MG,1563156207,85,-25.17,45.06,63.09,12.06
46,Severo-Kurilsk,100,RU,1563156209,96,50.68,156.12,44.37,12.08
47,Hailar,100,CN,1563156211,45,49.2,119.7,78.57,4.05
48,Caibarien,75,CU,1563156212,74,22.52,-79.47,80.6,9.17
49,Kaitangata,64,NZ,1563156214,56,-46.28,169.85,48.0,1.99
50,Snezhnogorsk,40,RU,1563156216,93,69.19,33.23,41.0,2.24
51,Ribeira Grande,100,PT,1563156217,66,38.52,-28.7,68.49,8.39
52,Castro,75,CL,1563156219,87,-42.48,-73.76,42.8,6.93
53,Tiksi,85,RU,1563156221,54,71.64,128.87,46.89,17.43
54,Te Anau,100,NZ,1563156222,64,-45.41,167.72,42.57,3.56
55,Morondava,0,MG,1563156224,59,-20.3,44.28,70.29,17.2
56,Butaritari,99,KI,1563156226,70,3.07,172.79,84.69,8.99
57,Narsaq,0,GL,1563156227,66,60.91,-46.05,53.6,2.24
58,Sibolga,92,ID,1563156229,76,1.74,98.78,81.09,4.59
59,Saint-Philippe,1,CA,1563156231,60,45.36,-73.48,72.0,3.36
60,Hay River,20,CA,1563156232,40,60.82,-115.79,71.6,4.7
61,Esperance,0,AU,1563156157,93,-33.86,121.89,48.2,14.99
62,Puri,1,ID,1563156236,54,-7.54,112.45,81.81,6.69
63,Laguna,40,BZ,1563156238,78,16.17,-88.94,82.4,2.68
64,Bambous Virieux,75,MU,1563156239,88,-20.34,57.76,68.0,11.41
65,Saint George,40,GR,1563156241,72,39.45,22.34,68.0,1.41
66,Kamina,0,CD,1563156243,40,-8.74,25.0,59.13,4.65
67,Manavalakurichi,40,IN,1563156244,88,8.13,77.3,78.8,5.82
68,Tigzirt,0,DZ,1563156246,73,36.57,4.2,65.25,3.58
69,Port Alfred,0,ZA,1563156248,86,-33.59,26.89,61.0,1.99
70,Thabazimbi,0,ZA,1563156249,69,-24.59,27.41,37.0,2.33
71,Mwense,0,ZM,1563156251,68,-10.39,28.7,52.29,4.74
72,Ancud,75,CL,1563156253,87,-41.87,-73.83,42.8,6.93
73,Newport,41,GB,1563156254,82,51.59,-3.0,63.0,9.17
74,San Ignacio,89,PE,1563156256,97,-5.15,-79.0,59.13,0.69
75,Puerto Ayora,9,EC,1563156258,92,-0.74,-90.35,70.0,1.99
76,Rincon,75,PA,1563156259,100,8.46,-82.28,77.0,2.24
77,Dothan,1,US,1563155969,94,31.22,-85.39,78.8,3.6
78,Kavieng,98,PG,1563156263,79,-2.57,150.8,82.17,8.86
79,Araouane,19,ML,1563156264,26,18.9,-3.53,94.41,4.72
80,Gladstone,100,AU,1563156266,23,-23.84,151.26,68.0,9.17
81,Mana,93,NG,1563156268,51,13.03,5.27,86.13,8.43
82,Broome,58,GB,1563156269,76,52.47,1.45,57.2,4.7
83,Caravelas,2,BR,1563156271,91,-17.73,-39.27,67.41,7.54
84,Otaki,90,JP,1563156273,94,35.95,138.94,78.01,6.93
85,Imbituba,75,BR,1563156049,82,-28.24,-48.67,60.8,12.75
86,Yanam,40,IN,1563156276,70,16.73,82.22,86.0,10.29
87,Sioux Lookout,20,CA,1563156278,78,50.1,-91.92,78.8,2.24
88,Sao Pedro do Sul,75,BR,1563156279,93,-29.62,-54.18,51.8,4.7
89,Codrington,0,AU,1563156281,36,-28.95,153.24,62.01,19.46
90,Constitucion,40,MX,1563156283,31,23.99,-104.67,78.8,6.93
91,Beringovskiy,94,RU,1563156284,69,63.05,179.32,60.93,8.9
92,Mashhad,0,IR,1563156120,44,36.3,59.61,80.6,7.76
93,Chokurdakh,100,RU,1563156288,66,70.62,147.9,42.57,13.98
94,Nabire,24,ID,1563156289,62,-3.36,135.5,81.81,4.92
95,Mayo,75,CA,1563156291,49,63.59,-135.9,71.6,10.29
96,Carnarvon,0,ZA,1563156293,27,-30.97,22.13,49.77,6.78
97,Labuhan,15,ID,1563156294,47,-2.54,115.51,88.29,1.92
98,Rokytne,33,UA,1563156296,97,51.27,27.23,50.49,4.94
99,Adrar,0,DZ,1563156298,9,27.87,-0.29,95.0,3.33
100,Leningradskiy,100,RU,1563156299,96,69.38,178.42,36.81,2.37
101,Acapulco,75,MX,1563156301,79,16.86,-99.88,84.2,8.05
102,Nageshwari,100,BD,1563156303,92,25.94,89.71,77.49,6.78
103,East London,0,ZA,1563156305,84,-33.02,27.91,51.21,2.73
104,Tasiilaq,100,GL,1563156306,70,65.61,-37.64,44.6,4.7
105,Werda,0,BW,1563156308,37,-25.27,23.28,49.77,8.16
106,Victoria,75,BN,1563156249,74,5.28,115.24,84.2,3.36
107,Vidim,0,CZ,1563156311,93,50.47,14.53,59.0,4.7
108,Muravlenko,0,RU,1563156313,57,63.79,74.5,79.29,13.51
109,Tieli,4,CN,1563156315,69,46.98,128.05,77.85,4.41
110,Nanortalik,93,GL,1563156316,95,60.14,-45.24,38.97,1.88
111,Bredasdorp,0,ZA,1563156318,93,-34.53,20.04,42.8,6.93
112,Nikolskoye,0,RU,1563156320,87,59.7,30.79,52.0,4.47
113,Ponta do Sol,0,BR,1563156321,65,-20.63,-46.0,60.93,1.79
114,Ossora,0,RU,1563156323,66,59.24,163.07,69.57,6.96
115,Mount Gambier,90,AU,1563156325,87,-37.83,140.78,53.6,13.87
116,La Huaca,97,PE,1563156327,87,-12.67,-76.64,60.21,13.85
117,Atuona,0,PF,1563156122,75,-9.8,-139.03,80.73,15.68
118,New Norfolk,75,AU,1563156330,57,-42.78,147.06,54.0,16.11
119,Porto Novo,0,BR,1563156331,77,-23.68,-45.44,60.8,9.35
120,Kaduqli,98,SD,1563156333,89,11.01,29.72,72.09,5.86
121,Sao Filipe,51,CV,1563156335,89,14.9,-24.5,73.53,13.24
122,Takoradi,0,GH,1563156337,94,4.89,-1.75,71.01,3.38
123,Kisangani,0,CD,1563156338,86,0.52,25.21,70.65,2.19
124,Bechem,39,GH,1563156340,99,7.09,-2.02,68.13,2.77
125,Lebu,75,ET,1563156342,93,8.96,38.73,53.6,2.24
126,Sharjah,3,AE,1563156343,79,25.36,55.39,89.6,8.05
127,Fortuna,1,US,1563156345,82,40.6,-124.16,64.99,14.99
128,Saint Anthony,20,US,1563156347,48,43.97,-111.68,82.4,13.87
129,Thompson,90,CA,1563156348,56,55.74,-97.86,69.8,3.36
130,Nantucket,1,US,1563156068,78,41.28,-70.1,77.0,3.36
131,Lowicz,0,PL,1563156352,71,52.11,19.95,57.2,2.24
132,Hami,95,CN,1563156353,15,42.84,93.51,87.93,11.34
133,Lata,61,IN,1563156355,88,30.78,78.62,46.53,5.28
134,Klaksvik,100,FO,1563156357,100,62.23,-6.59,53.6,4.7
135,Hofn,100,IS,1563156358,91,64.25,-15.21,44.37,5.03
136,Huejuquilla el Alto,100,MX,1563156360,86,22.63,-103.9,64.89,2.26
137,Hithadhoo,95,MV,1563156362,69,-0.6,73.08,82.89,4.14
138,Rocha,71,UY,1563156209,93,-34.48,-54.34,41.49,2.84
139,Longyearbyen,75,NO,1563156365,75,78.22,15.63,44.6,6.93
140,Charyshskoye,50,RU,1563156367,66,51.4,83.56,69.57,13.42
141,Severobaykalsk,99,RU,1563156368,47,55.65,109.32,65.61,6.31
142,General Cepeda,40,MX,1563156370,41,25.38,-101.48,75.99,11.41
143,Yellowknife,75,CA,1563156372,35,62.45,-114.38,69.8,7.23
144,Cuamba,45,MZ,1563156373,92,-14.8,36.54,57.33,4.5
145,Tura,100,RU,1563156375,67,64.27,100.22,68.13,4.59
146,Dingle,87,PH,1563156377,81,11.0,122.67,82.17,6.31
147,Airai,100,TL,1563156378,49,-8.93,125.41,81.09,0.96
148,Luderitz,0,NA,1563156380,93,-26.65,15.16,50.0,4.7
149,Neiafu,75,TO,1563156382,78,-18.65,-173.98,77.0,11.41
150,Berlin,75,DE,1563156133,72,52.52,13.39,61.0,4.7
151,Guerrero Negro,0,MX,1563156385,85,27.97,-114.04,67.41,13.94
152,Tyup,0,KG,1563156387,57,42.73,78.36,53.73,3.02
153,Hosdurga,52,IN,1563156389,75,13.8,76.29,75.33,13.22
154,Tabou,1,CI,1563156390,87,4.42,-7.36,69.57,1.16
155,Altay,0,CN,1563156392,42,47.83,88.13,68.13,3.53
156,Yatou,75,CM,1563156394,100,3.63,9.81,75.2,1.12
157,Lipnita,100,RO,1563156395,99,44.1,27.6,57.0,1.01
158,Mayumba,99,GA,1563156397,92,-3.44,10.65,70.65,4.76
159,Warrnambool,61,AU,1563156399,97,-38.38,142.48,54.0,8.99
160,Tuatapere,75,NZ,1563156400,80,-46.13,167.69,46.99,3.0
161,Ribas do Rio Pardo,35,BR,1563156402,49,-20.45,-53.76,67.77,2.89
162,Mahebourg,75,MU,1563156404,88,-20.41,57.7,68.0,11.41
163,Geraldton,90,CA,1563156405,88,49.72,-86.95,66.2,5.82
164,Iqaluit,75,CA,1563156407,87,63.75,-68.52,42.8,5.82
165,Manati,0,AL,1563156409,93,41.76,19.67,62.6,2.24
166,Diamantino,0,BR,1563156410,44,-14.4,-56.44,73.53,4.74
167,Cayenne,91,GF,1563156412,94,4.94,-52.33,77.0,3.09
168,Camabatela,15,AO,1563156414,99,-8.19,15.37,60.21,1.32
169,Bud,100,NO,1563156416,87,62.91,6.91,51.01,3.36
170,Didi Lilo,90,GE,1563156417,77,41.74,44.97,69.8,9.17
171,Mamallapuram,20,IN,1563156419,74,12.63,80.17,82.4,9.17
172,Kuzhithurai,40,IN,1563156421,88,8.32,77.18,78.8,5.82
173,Birao,100,CF,1563156422,88,10.3,22.78,72.45,10.07
174,Tuktoyaktuk,75,CA,1563156424,59,69.44,-133.03,62.6,6.93
175,Souillac,0,FR,1563156426,63,45.6,-0.6,66.99,5.82
176,Yulara,23,AU,1563156427,50,-25.24,130.99,53.6,18.34
177,Pontian Kecil,40,MY,1563156429,100,1.48,103.39,77.0,5.82
178,Jining,32,CN,1563156431,35,35.41,116.58,95.13,7.2
179,Naryan-Mar,96,RU,1563156432,82,67.67,53.09,49.77,4.05
180,Georgetown,0,GY,1563156405,83,6.8,-58.16,82.4,4.7
181,Arraial do Cabo,1,BR,1563156436,74,-22.97,-42.02,72.09,4.83
182,Muroto,75,JP,1563156437,83,33.37,134.14,77.0,5.82
183,Tautira,40,PF,1563156439,69,-17.73,-149.15,80.6,11.41
184,Butembo,5,CD,1563156441,94,0.12,29.29,59.49,2.95
185,Ascoli Piceno,11,IT,1563156442,93,42.85,13.58,66.99,4.7
186,Srandakan,52,ID,1563156444,76,-7.94,110.25,77.13,23.11
187,Havoysund,100,NO,1563156446,87,71.0,24.66,44.6,2.24
188,Kahului,20,US,1563156265,51,20.89,-156.47,89.6,14.99
189,Plettenberg Bay,0,ZA,1563156449,85,-34.05,23.37,50.13,3.74
190,Pingliang,100,CN,1563156451,46,35.54,106.68,73.53,10.51
191,Saquena,0,PE,1563156452,91,-4.67,-73.52,71.73,0.45
192,Biak,100,ID,1563156454,82,-0.91,122.88,67.41,6.53
193,Acari,4,BR,1563156456,76,-6.44,-36.64,74.25,17.49
194,Sao Joao da Barra,1,BR,1563156458,68,-21.64,-41.05,67.41,2.51
195,Ornskoldsvik,100,SE,1563156459,93,63.29,18.72,53.6,4.21
196,Esso,39,RU,1563156461,47,55.93,158.7,67.05,9.51
197,Aklavik,75,CA,1563156463,60,68.22,-135.01,68.0,8.05
198,Teluknaga,20,ID,1563156464,54,-6.1,106.64,84.99,5.82
199,Alice Springs,0,AU,1563156263,46,-23.7,133.88,53.6,16.11
200,Belyy Yar,0,RU,1563156468,68,53.6,91.39,68.0,6.71
201,Waipawa,33,NZ,1563156469,66,-39.94,176.59,53.01,5.01
202,Ahuimanu,20,US,1563156471,78,21.44,-157.84,89.6,12.75
203,Ovre Ardal,99,NO,1563156456,79,61.32,7.8,41.49,4.29
204,San Vicente,75,EC,1563156474,88,-0.59,-80.41,75.2,4.7
205,Port Macquarie,13,AU,1563156476,31,-31.43,152.91,64.99,21.92
206,Nishihara,90,JP,1563156478,94,35.74,139.53,75.99,6.93
207,Otradnoye,0,RU,1563156479,87,59.77,30.8,52.0,4.47
208,Lagoa,0,PT,1563156481,77,37.14,-8.45,68.0,8.05
209,Hervey Bay,88,AU,1563156483,29,-25.3,152.85,66.99,19.46
210,Cienfuegos,69,CU,1563156485,100,22.15,-80.44,80.6,2.24
211,Saint-Joseph,40,FR,1563156486,72,43.56,6.97,73.4,3.36
212,Aksarka,44,RU,1563156488,76,66.56,67.8,69.57,11.27
213,Kodiak,20,US,1563156490,62,39.95,-94.76,87.8,11.41
214,Baiyin,40,CN,1563156491,93,36.55,104.13,60.8,4.47
215,Quelimane,60,MZ,1563156296,85,-17.88,36.89,63.09,3.31
216,Port Elizabeth,1,US,1563156488,65,39.31,-74.98,82.4,5.73
217,Rabo de Peixe,20,PT,1563156496,82,37.8,-25.58,68.0,4.7
218,Grand Baie,75,MU,1563156498,88,-20.02,57.58,68.0,11.41
219,Coahuayana,100,MX,1563156499,90,18.62,-100.35,74.25,1.99
220,Avarua,83,CK,1563156501,64,-21.21,-159.78,73.4,10.29
221,Prince Rupert,90,CA,1563156503,87,54.32,-130.32,60.8,3.36
222,Shelburne,1,CA,1563156505,77,44.08,-80.2,73.4,4.7
223,Samarkand,0,UZ,1563156506,39,39.65,66.98,80.6,6.93
224,Nizhniy Kuranakh,2,RU,1563156508,62,58.84,125.49,77.85,2.8
225,Muros,0,ES,1563156511,100,42.77,-9.06,64.4,4.7
226,Don Matias,40,CO,1563156512,82,6.49,-75.39,62.6,3.36
227,Oriximina,29,BR,1563156514,87,-1.77,-55.87,76.77,6.04
228,Riosucio,75,CO,1563156516,100,5.42,-75.7,66.2,6.93
229,Litovko,26,RU,1563156517,50,49.24,135.18,81.45,4.32
230,Metro,25,ID,1563156519,68,-5.11,105.31,81.45,4.92
231,Clyde River,90,CA,1563156521,93,70.47,-68.59,37.4,14.99
232,Coquimbo,0,CL,1563156328,81,-29.95,-71.34,52.0,6.93
233,San Policarpo,100,PH,1563156524,86,12.18,125.51,79.29,10.36
234,Kriel,0,ZA,1563156526,72,-26.26,29.26,37.0,0.51
235,Pascagoula,40,US,1563156527,100,30.37,-88.56,84.2,3.36
236,Silver City,100,US,1563156529,39,32.77,-108.28,78.01,1.01
237,Dwarka,75,IN,1563156531,66,28.58,77.04,91.0,9.17
238,Gorele,75,TR,1563156533,73,41.03,39.0,73.4,4.7
239,Hasaki,75,JP,1563156534,88,35.73,140.83,72.0,14.99
240,Safranbolu,56,TR,1563156300,91,41.25,32.69,55.53,2.55
241,Taksimo,0,RU,1563156356,52,56.36,114.84,64.89,5.03
242,Half Moon Bay,1,US,1563156539,82,37.46,-122.43,73.4,10.29
243,Kungurtug,67,RU,1563156541,70,50.6,97.53,62.37,3.94
244,Vestmannaeyjar,100,IS,1563156543,96,63.44,-20.27,53.01,21.68
245,Batagay-Alyta,83,RU,1563156544,45,67.8,130.41,62.73,5.57
246,Faya,80,SA,1563156546,68,18.39,42.45,78.8,3.36
247,Saskylakh,0,RU,1563156548,45,71.97,114.09,55.17,12.39
248,Vikulovo,39,RU,1563156549,73,55.07,40.96,54.09,2.77
249,San Ramon,5,NI,1563156551,96,12.92,-85.84,65.25,4.36
250,Opuwo,0,NA,1563156553,50,-18.06,13.84,51.21,2.24
251,Dodoma,5,TZ,1563156554,82,-6.18,35.75,60.8,6.93
252,General Pico,35,AR,1563156556,66,-35.66,-63.75,47.97,7.83
253,Nijar,0,ES,1563156360,78,36.97,-2.21,71.6,4.7
254,Fare,1,PF,1563156559,79,-16.7,-151.02,78.21,12.48
255,Cranbrook,75,CA,1563156561,35,49.51,-115.76,71.6,12.75
256,Lively,40,US,1563156563,69,32.41,-96.32,82.0,6.93
257,Hit,0,IQ,1563156564,21,33.64,42.83,83.25,12.19
258,Evensk,91,RU,1563156566,83,61.92,159.24,55.89,6.69
259,Mapiripan,81,CO,1563156568,95,2.89,-72.13,72.45,2.1
260,Rehoboth,0,NA,1563156569,58,-23.31,17.08,41.13,1.66
261,Quirinopolis,68,BR,1563156571,42,-18.45,-50.45,73.53,4.47
262,Povenets,100,RU,1563156573,98,62.85,34.83,46.17,2.26
263,San Cristobal,100,HN,1563156575,78,14.68,-86.92,68.85,5.35
264,Mikulovice,75,CZ,1563156576,93,50.59,13.48,57.99,3.36
265,Mastic Beach,1,US,1563156578,53,40.77,-72.85,82.4,3.36
266,Nanga Eboko,100,CM,1563156580,99,4.68,12.37,67.77,1.63
267,Dali,92,CN,1563156581,30,34.79,109.94,91.89,12.01
268,Tari,100,NG,1563156583,52,12.41,4.49,85.41,9.13
269,Honjo,20,JP,1563156585,61,39.38,140.05,80.6,6.93
270,Pacific Grove,1,US,1563156586,39,36.62,-121.92,84.2,11.41
271,Haines Junction,4,CA,1563156588,47,60.75,-137.51,60.57,9.91
272,Monkey Bay,0,MW,1563156590,77,-14.08,34.91,63.09,12.26
273,Upernavik,0,GL,1563156591,66,72.79,-56.15,44.37,10.04
274,Yeppoon,100,AU,1563156593,25,-23.13,150.74,64.4,11.41
275,Ibimirim,28,BR,1563156595,91,-8.54,-37.69,67.41,11.48
276,Vostok,88,RU,1563156596,64,46.45,135.83,69.93,3.6
277,Urucara,0,BR,1563156599,91,-2.54,-57.76,73.17,2.55
278,Lavrentiya,80,RU,1563156497,52,65.58,-170.99,67.77,10.78
279,Agirish,50,RU,1563156604,74,61.92,63.02,72.09,3.76
280,Harnosand,100,SE,1563156606,66,62.63,17.94,55.99,9.17
281,Moussoro,95,TD,1563156607,52,13.64,16.49,82.89,12.73
282,Norman Wells,75,CA,1563156609,77,65.28,-126.83,66.2,1.34
283,Beira,90,ES,1563156611,93,43.2,-8.36,64.0,1.12
284,Sarai,40,IN,1563156612,74,25.78,85.28,86.0,8.05
285,Manokwari,0,ID,1563156614,70,-0.87,134.08,78.93,5.73
286,Wajir,43,KE,1563156616,83,1.75,40.07,71.01,11.65
287,Atar,93,MR,1563156617,21,20.52,-13.05,91.53,6.85
288,Skjervoy,100,NO,1563156619,77,70.03,20.97,47.61,3.53
289,Thinadhoo,99,MV,1563156621,68,0.53,72.93,83.61,1.83
290,Sabha,0,LY,1563156622,20,27.03,14.43,85.41,6.69
291,Kargopol,57,RU,1563156624,79,61.51,38.95,47.61,1.5
292,Saint-Pierre,0,FR,1563156626,87,48.95,4.24,57.99,9.17
293,Crotone,100,IT,1563156627,67,39.09,17.12,67.41,5.26
294,Amapa,40,HN,1563156629,78,15.09,-87.97,82.4,10.29
295,Hobyo,71,SO,1563156631,66,5.35,48.53,77.49,18.41
296,Abha,74,SA,1563156632,68,18.22,42.5,78.8,3.36
297,Monte Alegre,0,BR,1563156634,97,-2.0,-54.07,72.45,2.48
298,Constantine,0,DZ,1563156636,64,36.36,6.61,69.8,9.17
299,Ladyzhyn,100,UA,1563156637,93,48.68,29.26,59.0,6.06
300,Sokoni,0,CD,1563156639,92,-12.89,28.78,47.25,5.06
301,Sinnamary,73,GF,1563156641,79,5.38,-52.96,80.73,12.95
302,La Brea,20,TT,1563156642,83,10.24,-61.62,78.8,8.75
303,Buchanan,20,LR,1563156644,94,5.88,-10.05,73.4,8.19
304,Los Llanos de Aridane,40,ES,1563156646,88,28.66,-17.92,71.6,17.22
305,Pendleton,1,US,1563156648,100,34.65,-82.78,78.8,6.4
306,Point Fortin,20,TT,1563156649,83,10.16,-61.68,78.8,8.46
307,Garowe,97,SO,1563156651,71,8.41,48.48,73.89,20.45
308,Westport,1,US,1563156545,42,41.14,-73.36,82.99,8.05
309,Chabahar,0,IR,1563156654,80,25.29,60.65,83.61,6.64
310,Bethel,90,US,1563156433,63,60.79,-161.76,68.0,6.93
311,Hue,20,VN,1563156657,49,16.47,107.58,93.2,3.36
312,Shiyan,96,CN,1563156659,47,32.65,110.78,83.97,4.47
313,Touros,0,BR,1563156566,81,-5.2,-35.46,78.57,16.93
314,Cidreira,100,BR,1563156662,89,-30.17,-50.22,48.33,4.83
315,Port Hardy,75,CA,1563156664,72,50.7,-127.42,66.2,8.05
316,Ambagarh Chauki,63,IN,1563156666,68,20.78,80.75,82.89,11.99
317,Chernyshevskiy,77,RU,1563156667,54,63.01,112.47,74.25,10.31
318,Santa Rosa,0,AR,1563156669,42,-36.62,-64.29,47.61,9.04
319,Zhezkazgan,0,KZ,1563156671,37,47.8,67.71,69.8,11.18
320,Jutai,40,BR,1563156672,99,-1.71,-47.89,71.01,2.1
321,Marzuq,9,YE,1563156674,61,14.4,46.47,72.45,6.2
322,Bhaderwah,76,IN,1563156676,71,32.98,75.72,65.97,0.34
323,Huarmey,10,PE,1563156678,88,-10.07,-78.15,62.01,18.77
324,Bathsheba,75,BB,1563156679,94,13.22,-59.52,75.2,26.4
325,Maku,0,IR,1563156681,67,39.29,44.45,62.6,1.43
326,Taoudenni,0,ML,1563156683,24,22.68,-3.98,90.45,3.58
327,Namibe,0,AO,1563156684,85,-15.19,12.15,66.33,14.12
328,Oyama,75,JP,1563156686,83,36.31,139.8,79.0,9.17
329,Kuzovatovo,75,RU,1563156688,92,53.54,47.69,58.05,7.34
330,Fergus Falls,1,US,1563156487,78,46.28,-96.08,82.4,5.82
331,Margate,75,AU,1563156691,57,-43.03,147.26,54.0,16.11
332,Goderich,0,CA,1563156693,75,43.74,-81.71,60.01,3.0
333,Ahipara,66,NZ,1563156694,100,-35.17,173.16,64.0,22.93
334,Vuktyl,100,RU,1563156696,90,63.86,57.31,56.97,10.0
335,Semirom,43,IR,1563156698,26,31.41,51.57,70.29,2.21
336,Najran,0,SA,1563156699,18,17.54,44.22,82.4,2.73
337,Sola,0,TZ,1563156701,69,-3.17,33.8,62.37,5.88
338,Taltal,3,CL,1563156703,84,-25.41,-70.49,48.33,2.98
339,Sylvan Lake,75,CA,1563156704,60,52.31,-114.09,68.0,10.29
340,Quepos,75,CR,1563156706,83,9.43,-84.16,69.8,6.93
341,Smithers,75,CA,1563156708,72,54.78,-127.17,64.4,5.82
342,Flin Flon,86,CA,1563156709,61,54.77,-101.88,68.49,4.74
343,Bonnyville,75,CA,1563156582,82,54.27,-110.74,62.6,12.75
344,Sao Felix do Xingu,0,BR,1563156713,72,-6.64,-51.99,71.01,1.61
345,Surt,0,LY,1563156714,56,31.21,16.59,82.89,12.71
346,Ilo,63,PE,1563156716,81,-17.65,-71.34,59.49,6.58
347,Talara,83,PE,1563156505,87,-4.58,-81.27,65.25,15.61
348,Otteveny,0,HU,1563156719,93,47.72,17.48,60.8,6.93
349,Pavlohrad,0,UA,1563156721,77,48.53,35.87,59.0,2.57
350,Khatanga,44,RU,1563156723,43,71.98,102.47,60.57,10.11
351,Mathathane,0,BW,1563156725,77,-22.27,28.75,48.69,5.91
352,Mairana,94,BO,1563156726,98,-18.12,-63.96,58.77,1.1
353,Waingapu,25,ID,1563156728,58,-9.65,120.26,78.93,18.41
354,Moerai,0,PF,1563156730,69,-22.43,-151.33,71.01,10.94
355,Port Augusta,29,AU,1563156731,93,-32.49,137.76,54.0,9.17
356,Isangel,75,VU,1563156458,69,-19.55,169.27,80.6,9.17
357,Grootfontein,0,NA,1563156734,55,-19.56,18.1,38.25,3.78
358,Nikolayevsk-na-amure,55,RU,1563156736,48,53.14,140.72,78.21,3.58
359,Istanbul,75,TR,1563156600,88,41.01,28.95,64.4,11.41
360,Rio Grande,0,BR,1563156559,93,-32.03,-52.1,42.93,2.42
361,Sitka,0,US,1563156741,57,37.17,-99.65,82.99,4.0
362,Revelstoke,90,CA,1563156743,56,50.99,-118.19,69.8,11.41
363,Chisec,0,GT,1563156745,76,15.81,-90.29,76.77,5.32
364,Grand Gaube,75,MU,1563156746,88,-20.01,57.66,68.0,11.41
365,Lorengau,97,PG,1563156603,81,-2.02,147.27,81.45,7.9
366,Bima,40,ID,1563156749,54,-8.45,118.73,81.09,7.18
367,Brae,65,GB,1563156751,93,60.4,-1.35,51.8,5.82
368,Vila Franca do Campo,20,PT,1563156753,82,37.72,-25.43,68.0,4.7
369,Calais,100,FR,1563156755,67,50.95,1.87,60.01,8.05
370,Ugoofaaru,100,MV,1563156756,68,5.67,73.0,83.61,8.46
371,Faanui,9,PF,1563156758,81,-16.48,-151.75,78.57,11.97
372,Salinopolis,10,BR,1563156760,77,-0.61,-47.36,81.45,17.02
373,Yar-Sale,47,RU,1563156761,64,66.83,70.83,72.81,7.54
374,Villa de Cura,0,VE,1563156763,94,10.04,-67.49,66.69,1.25
375,Port Lincoln,100,AU,1563156765,76,-34.72,135.86,54.45,11.25
376,Luancheng,94,CN,1563156767,66,37.88,114.65,86.0,2.24
377,Maceio,0,BR,1563156616,83,-9.67,-35.74,71.6,2.24
378,Aasiaat,0,GL,1563156770,69,68.71,-52.87,40.41,2.93
379,Udimskiy,25,RU,1563156771,88,61.14,45.92,53.37,2.64
380,Tigil,28,RU,1563156773,54,57.8,158.67,67.05,18.19
381,Tahlequah,1,US,1563156775,73,35.92,-94.97,82.4,4.7
382,Talcahuano,0,CL,1563156777,93,-36.72,-73.12,44.6,3.36
383,Wamba,41,CD,1563156778,98,2.14,27.99,64.53,1.88
384,Kruisfontein,0,ZA,1563156780,84,-34.0,24.73,47.97,5.12
385,Avera,1,US,1563156782,83,33.19,-82.53,84.2,4.7
386,Flinders,0,AU,1563156783,46,-34.58,150.85,62.01,16.11
387,San Jose de Sisa,75,PE,1563156785,290,-6.62,-76.69,62.6,3.36
388,Tottori,75,JP,1563156787,78,35.5,134.23,77.0,10.29
389,Egvekinot,100,RU,1563156584,92,66.32,-179.17,49.77,12.15
390,San Patricio,100,PY,1563156790,95,-26.98,-56.83,60.21,5.23
391,Cockburn Town,100,TC,1563156792,78,21.46,-71.14,82.53,20.92
392,Manicore,52,BR,1563156793,88,-5.81,-61.3,73.53,0.54
393,Padilla,40,CO,1563156795,69,3.23,-76.31,75.2,12.75
394,Ornes,20,FR,1563156797,71,49.25,5.47,57.99,6.93
395,Kununurra,14,AU,1563156798,16,-15.77,128.74,69.8,14.99
396,Jaypur,40,IN,1563156800,79,23.05,87.44,89.01,9.17
397,Totness,1,US,1563156802,78,33.74,-80.8,82.4,3.36
398,Jurmala,20,LV,1563156803,100,56.97,23.77,48.2,2.24
399,Arys,0,KZ,1563156805,36,42.43,68.8,78.8,13.98
400,Champerico,75,MX,1563156807,83,16.38,-93.6,78.8,3.36
401,Dicabisagan,86,PH,1563156808,76,17.08,122.42,84.33,3.98
402,Lamar,1,US,1563156810,21,38.09,-102.62,91.4,20.8
403,Noumea,90,NC,1563156587,83,-22.28,166.46,69.8,3.36
404,Bukama,0,CD,1563156813,40,-9.2,25.85,59.85,2.82
405,Oranjemund,0,ZA,1563156815,87,-28.55,16.43,54.09,12.12
406,Maldonado,75,UY,1563156566,100,-34.91,-54.96,42.8,3.36
407,Itaquyry,95,PY,1563156819,87,-24.93,-55.22,64.89,3.62
408,Ilulissat,20,GL,1563156820,64,69.22,-51.1,51.8,3.36
409,Nocupetaro,100,MX,1563156822,95,19.05,-101.15,67.41,4.14
410,Salalah,90,OM,1563156824,100,17.01,54.1,77.0,6.93
411,Ixtapa,90,MX,1563156825,100,20.71,-105.21,78.8,6.93
412,Buala,94,SB,1563156827,75,-8.15,159.59,81.09,3.09
413,Salinas,1,US,1563156642,39,36.67,-121.66,84.2,11.41
414,Palmer,75,AU,1563156830,93,-34.85,139.16,57.99,11.41
415,Misrikh,96,IN,1563156832,66,27.43,80.53,86.49,4.68
416,Sebastian,1,US,1563156572,78,27.82,-80.47,84.0,4.7
417,Bartlesville,1,US,1563156605,74,36.75,-95.98,84.2,8.05
418,Severo-Yeniseyskiy,0,RU,1563156575,55,60.37,93.04,66.33,6.98
419,Puyang,100,CN,1563156838,26,35.76,115.02,98.01,5.48
420,Vila Velha,40,BR,1563156840,78,-3.71,-38.6,86.0,8.05
421,Berdigestyakh,100,RU,1563156842,43,62.1,126.7,73.53,10.09
422,Mae Sot,75,MM,1563156844,88,16.71,98.57,78.8,3.36
423,Deputatskiy,0,RU,1563156727,37,69.3,139.9,56.25,9.42
424,San Blas,90,MX,1563156847,100,21.54,-105.29,71.6,11.41
425,Graham,1,US,1563156848,65,33.11,-98.59,86.0,7.7
426,Nadym,17,RU,1563156850,50,65.53,72.51,80.01,17.07
427,Saint-Augustin,20,CA,1563156852,68,45.63,-73.98,71.6,3.36
428,Yemtsa,33,RU,1563156854,89,63.06,40.33,49.41,2.48
429,Andujar,0,ES,1563156855,88,38.04,-4.05,62.37,1.59
430,Carroll,75,AU,1563156573,62,-30.99,150.44,53.01,13.87
431,Coxim,0,BR,1563156858,49,-18.5,-54.75,73.17,3.02
432,Caluquembe,0,AO,1563156860,60,-13.78,14.68,50.49,2.82
433,Hirara,40,JP,1563156862,74,24.8,125.28,87.8,10.29
434,Qeshm,40,IR,1563156863,79,26.96,56.27,91.4,6.93
435,Dunedin,45,NZ,1563156865,60,-45.87,170.5,51.01,10.0
436,Bastrop,90,US,1563156600,94,32.78,-91.91,75.0,8.05
437,Sawtell,0,AU,1563156868,36,-30.38,153.1,64.99,18.34
438,North Branch,40,US,1563156870,88,45.51,-92.98,87.8,9.89
439,Samarai,100,PG,1563156761,95,-10.62,150.67,74.25,7.43
440,San Juan,0,AR,1563156684,35,-31.54,-68.53,40.41,0.38
441,Leh,92,IN,1563156875,47,34.16,77.58,43.29,1.54
442,Provideniya,20,RU,1563156877,76,64.42,-173.23,53.6,17.9
443,Yumen,0,CN,1563156878,13,40.29,97.04,87.21,11.86
444,Chimbote,0,PE,1563156880,89,-9.08,-78.59,62.01,13.87
445,Ouegoa,100,NC,1563156882,81,-20.34,164.44,71.73,15.82
446,Luban,100,CN,1563156697,87,34.19,105.09,58.05,8.05
447,Jalu,0,LY,1563156799,60,29.03,21.55,76.41,7.52
448,Lompoc,90,US,1563156617,93,34.64,-120.46,77.0,10.29
449,Coihaique,75,CL,1563156644,86,-45.58,-72.07,41.0,3.36
450,Ust-Kuyga,46,RU,1563156890,41,70.0,135.55,59.85,11.16
451,Burnie,100,AU,1563156892,63,-41.05,145.91,55.0,5.99
452,Sorong,100,ID,1563156893,75,-0.86,131.25,80.01,8.68
453,Gizo,40,IL,1563156895,73,31.8,34.94,75.2,5.82
454,Neath,20,GB,1563156897,72,51.66,-3.8,63.0,8.05
455,Angoram,100,PG,1563156898,74,-4.06,144.07,82.89,6.78
456,Puerto Ayacucho,40,CO,1563156900,74,5.66,-67.63,84.2,3.33
457,Ewa Beach,20,US,1563156713,46,21.32,-158.01,89.6,18.34
458,Pleven,75,BG,1563156903,87,43.41,24.62,60.8,4.7
459,Portland,40,US,1563156791,56,43.66,-70.25,73.99,8.05
460,Buritizeiro,0,BR,1563156907,45,-17.37,-44.96,60.93,1.21
461,Kimbe,100,PG,1563156908,92,-5.56,150.15,76.77,2.89
462,Cabedelo,75,BR,1563156794,100,-6.97,-34.84,73.4,1.12
463,Ulladulla,0,AU,1563156912,37,-35.36,150.48,59.0,16.11
464,Pitimbu,75,BR,1563156896,100,-7.47,-34.81,73.4,1.12
465,Oktyabrskoye,0,RU,1563156915,67,56.73,85.44,62.6,4.47
466,Inhambane,0,MZ,1563156916,92,-23.87,35.38,58.41,1.54
467,Sao Jose de Piranhas,10,BR,1563156918,89,-7.12,-38.5,69.21,4.81
468,Henties Bay,0,NA,1563156920,97,-22.12,14.28,50.0,1.99
469,Axim,0,GH,1563156922,87,4.87,-2.24,74.25,7.72
470,Sal Rei,75,CV,1563156923,83,16.18,-22.92,75.2,10.29
471,Yenagoa,100,NG,1563156925,91,4.92,6.26,75.33,8.08
472,Omboue,21,GA,1563156927,86,-1.57,9.26,73.53,13.98
473,Leninskoye,0,RU,1563156928,72,54.82,82.85,66.2,6.71
474,Santo Tomas,75,PH,1563156930,83,7.53,125.62,82.4,6.93
475,Zhigansk,42,RU,1563156932,37,66.77,123.37,65.61,19.37
476,Bandipur,80,IN,1563156933,82,11.67,76.63,69.57,2.84
477,Russell,1,US,1563156935,48,38.9,-98.86,89.6,8.05
478,Santa Maria,0,BR,1563156937,51,-16.02,-48.01,62.6,1.12
479,Paka,88,CF,1563156938,97,4.15,15.03,63.09,2.17
480,Okha,72,RU,1563156940,71,53.59,142.95,65.25,14.54
481,Bandarbeyla,100,SO,1563156942,63,9.49,50.81,78.57,25.84
482,Passagem Franca,4,BR,1563156943,69,-6.18,-43.78,72.09,2.26
483,Sarny,0,UA,1563156945,95,51.32,26.62,50.85,6.58
484,Vung Tau,67,VN,1563156937,68,10.35,107.08,86.49,11.27
485,Tezu,100,IN,1563156948,98,27.93,96.16,71.01,3.0
486,Kajaani,0,FI,1563156950,93,64.22,27.73,42.8,2.24
487,Saint-Louis,0,SN,1563156952,85,16.03,-16.5,74.97,17.63
488,Kutum,99,SD,1563156953,56,14.2,24.66,76.41,11.1
489,Makakilo City,20,US,1563156955,46,21.35,-158.09,89.6,18.34
490,North Bend,1,US,1563156957,77,43.41,-124.22,68.0,10.29
491,Maues,0,BR,1563156959,94,-3.38,-57.72,72.45,2.42
492,Sabzevar,0,IR,1563156960,58,36.21,57.68,76.77,7.23
493,Narrabri,75,AU,1563156962,54,-30.33,149.78,55.0,10.29
494,Goulburn,37,AU,1563156964,79,-34.75,149.72,53.01,5.01
495,Soledade,75,BR,1563156965,94,-7.06,-36.37,69.8,9.17
496,Bucerias,90,MX,1563156967,100,20.76,-105.33,78.8,6.93
497,Wangaratta,75,AU,1563156969,71,-36.36,146.32,61.0,12.75
498,Tupik,100,RU,1563156970,92,54.43,119.94,59.49,4.65
499,Kuching,40,MY,1563156972,74,1.56,110.34,82.4,6.93
500,Puerto Madryn,0,AR,1563156761,65,-42.77,-65.04,44.73,13.31
501,Nanakuli,20,US,1563156975,46,21.39,-158.15,89.6,18.34
502,Kumano,75,JP,1563156977,65,34.34,132.59,88.0,8.05
503,Valreas,0,FR,1563156979,56,44.38,4.99,69.8,21.92
504,Talnakh,75,RU,1563156980,93,69.49,88.39,55.4,8.95
505,Chute-aux-Outardes,90,CA,1563156982,93,49.12,-68.38,62.6,5.82
506,Bowen,100,AU,1563156984,34,-20.01,148.25,69.01,11.41
507,Jasper,75,US,1563156826,100,33.83,-87.28,73.99,6.2
508,Irmo,1,US,1563156987,83,34.09,-81.18,82.4,5.64
509,Trinidad,1,BO,1563156835,67,-14.83,-64.9,75.33,2.26
510,Pangnirtung,44,CA,1563156716,54,66.15,-65.72,49.41,2.42
511,Marrakesh,0,MA,1563156992,53,31.63,-7.99,77.0,5.82
512,Borogontsy,10,RU,1563156727,39,62.67,131.17,81.81,8.28
513,Forest Hills,0,ZA,1563156995,93,-29.76,30.83,55.0,1.12
514,Pozoblanco,0,ES,1563156997,77,38.38,-4.85,69.8,4.7
515,Enger,75,DE,1563156998,87,52.14,8.56,57.2,4.7
516,San Jeronimo,4,PE,1563157000,95,-13.65,-73.37,44.37,0.74
517,Santiago,90,PH,1563157002,65,16.69,121.54,85.05,3.29
518,Angoche,0,MZ,1563157003,95,-16.23,39.91,64.53,4.36
519,Sambava,42,MG,1563157005,75,-14.27,50.17,62.73,3.96
520,Jijiga,97,ET,1563157007,94,9.35,42.8,57.33,12.88
521,Kakonko,100,TZ,1563157009,58,-3.28,30.97,68.13,1.25
522,Ballina,24,IE,1563157010,90,54.11,-9.15,60.01,3.0
523,Tanout,0,NE,1563157012,32,14.97,8.88,89.37,4.81
524,Houston,75,US,1563156894,70,29.76,-95.37,86.0,9.17
525,Sheridan,75,US,1563157015,44,39.65,-105.03,80.01,9.17
526,Isla Vista,20,US,1563157017,87,34.41,-119.86,84.99,4.7
527,Namatanai,100,PG,1563157019,76,-3.66,152.44,80.01,6.17
528,Hovd,75,NO,1563157020,100,63.83,10.7,51.01,10.29
529,Saldanha,0,PT,1563157022,66,41.42,-6.55,67.77,4.07
530,Guiratinga,42,BR,1563157024,48,-16.35,-53.76,70.65,2.39
531,Timmins,90,CA,1563157025,64,48.48,-81.33,69.8,2.24
532,Ngerengere,20,TZ,1563157027,93,-6.76,38.13,62.6,3.47
533,Homer,90,US,1563156841,63,59.64,-151.54,62.6,6.93
534,Mandiana,0,GN,1563157030,94,10.62,-8.7,70.65,3.67
535,Playas,22,EC,1563157032,75,-2.64,-80.39,64.99,5.99
536,Sorland,100,NO,1563157013,78,67.67,12.69,50.49,17.36
537,Kushiro,75,JP,1563157035,87,43.11,144.15,59.0,6.93
538,Coromandel,0,BR,1563157037,50,-18.47,-47.2,62.73,3.29
539,Palmira,40,CO,1563156779,69,3.53,-76.3,75.2,12.75
540,Znamenskoye,0,RU,1563157040,55,57.13,73.82,74.97,4.29
541,Asosa,77,ET,1563157042,94,10.07,34.53,64.89,1.57
542,Umea,75,SE,1563156772,93,63.83,20.26,51.8,3.36
543,Ambon,0,FR,1563157045,82,47.55,-2.56,64.0,9.17
544,Broken Hill,90,AU,1563157047,66,-31.97,141.45,53.6,20.8
545,Baykit,66,RU,1563157049,61,61.68,96.39,68.13,9.22
546,Yakeshi,97,CN,1563157050,54,49.28,120.73,76.77,4.81
547,Boyolangu,49,ID,1563157052,63,-8.09,111.9,76.41,8.5
548,Somerset,1,US,1563157054,57,41.77,-71.13,79.0,3.36
549,Halifax,90,CA,1563157056,100,44.65,-63.58,64.99,4.7
550,Bayir,0,TR,1563157058,94,37.27,28.22,68.0,4.7
551,Virginia Beach,1,US,1563156860,83,36.85,-75.98,86.0,12.35
552,Pathein,100,MM,1563157062,86,16.78,94.73,80.37,8.77
553,Kupang,20,ID,1563157063,48,-10.16,123.6,82.4,26.4
554,Manaure,1,CO,1563157065,78,11.78,-72.45,80.37,24.65
